[
    {
        "id": 2463810,
        "name": "Matmata",
        "state": "",
        "country": "TN",
        "coord": {
            "lon": 9.97157,
            "lat": 33.544449
        }
    },
    {
        "id": 2463951,
        "name": "Zaouiat Djedidi",
        "state": "",
        "country": "TN",
        "coord": {
            "lon": 10.57428,
            "lat": 36.643749
        }
    },
    {
        "id": 2464020,
        "name": "Souassi",
        "state": "",
        "country": "TN",
        "coord": {
            "lon": 10.54745,
            "lat": 35.34325
        }
    },
    {
        "id": 2464037,
        "name": "Zahānah",
        "state": "",
        "country": "TN",
        "coord": {
            "lon": 10.03876,
            "lat": 37.039589
        }
    },
    {
        "id": 2464038,
        "name": "Gouvernorat de Zaghouan",
        "state": "",
        "country": "TN",
        "coord": {
            "lon": 10.0,
            "lat": 36.333328
        }
    },
    {
        "id": 2464041,
        "name": "Zaghouan",
        "state": "",
        "country": "TN",
        "coord": {
            "lon": 10.14292,
            "lat": 36.402908
        }
    },
    {
        "id": 2464157,
        "name": "Wadi Maliz",
        "state": "",
        "country": "TN",
        "coord": {
            "lon": 8.54951,
            "lat": 36.468128
        }
    },
    {
        "id": 2464168,
        "name": "Oued Lill",
        "state": "",
        "country": "TN",
        "coord": {
            "lon": 10.04057,
            "lat": 36.83408
        }
    },
    {
        "id": 2464427,
        "name": "Touza",
        "state": "",
        "country": "TN",
        "coord": {
            "lon": 10.82732,
            "lat": 35.635441
        }
    },
    {
        "id": 2464461,
        "name": "Republic of Tunisia",
        "state": "",
        "country": "TN",
        "coord": {
            "lon": 9.0,
            "lat": 34.0
        }
    },
    {
        "id": 2464464,
        "name": "Gouvernorat de Tunis",
        "state": "",
        "country": "TN",
        "coord": {
            "lon": 10.13333,
            "lat": 36.76667
        }
    },
    {
        "id": 2464470,
        "name": "Tunis",
        "state": "",
        "country": "TN",
        "coord": {
            "lon": 10.16579,
            "lat": 36.81897
        }
    },
    {
        "id": 2464645,
        "name": "Gouvernorat de Tozeur",
        "state": "",
        "country": "TN",
        "coord": {
            "lon": 8.08333,
            "lat": 34.0
        }
    },
    {
        "id": 2464648,
        "name": "Tozeur",
        "state": "",
        "country": "TN",
        "coord": {
            "lon": 8.13352,
            "lat": 33.919682
        }
    },
    {
        "id": 2464698,
        "name": "Tataouine",
        "state": "",
        "country": "TN",
        "coord": {
            "lon": 10.0,
            "lat": 32.0
        }
    },
    {
        "id": 2464701,
        "name": "Tataouine",
        "state": "",
        "country": "TN",
        "coord": {
            "lon": 10.45177,
            "lat": 32.929668
        }
    },
    {
        "id": 2464704,
        "name": "Testour",
        "state": "",
        "country": "TN",
        "coord": {
            "lon": 9.44307,
            "lat": 36.5513
        }
    },
    {
        "id": 2464770,
        "name": "Tamaghzah",
        "state": "",
        "country": "TN",
        "coord": {
            "lon": 7.94313,
            "lat": 34.388489
        }
    },
    {
        "id": 2464795,
        "name": "Thala",
        "state": "",
        "country": "TN",
        "coord": {
            "lon": 8.67031,
            "lat": 35.572441
        }
    },
    {
        "id": 2464804,
        "name": "Takelsa",
        "state": "",
        "country": "TN",
        "coord": {
            "lon": 10.63333,
            "lat": 36.783329
        }
    },
    {
        "id": 2464809,
        "name": "Tajerouine",
        "state": "",
        "country": "TN",
        "coord": {
            "lon": 8.55276,
            "lat": 35.891739
        }
    },
    {
        "id": 2464855,
        "name": "Tabursuq",
        "state": "",
        "country": "TN",
        "coord": {
            "lon": 9.24751,
            "lat": 36.456921
        }
    },
    {
        "id": 2464871,
        "name": "Tabarka",
        "state": "",
        "country": "TN",
        "coord": {
            "lon": 8.75801,
            "lat": 36.954418
        }
    },
    {
        "id": 2464912,
        "name": "Gouvernorat de Sousse",
        "state": "",
        "country": "TN",
        "coord": {
            "lon": 10.41667,
            "lat": 35.916672
        }
    },
    {
        "id": 2464915,
        "name": "Sousse",
        "state": "",
        "country": "TN",
        "coord": {
            "lon": 10.63699,
            "lat": 35.82539
        }
    },
    {
        "id": 2464960,
        "name": "Sukrah",
        "state": "",
        "country": "TN",
        "coord": {
            "lon": 10.2468,
            "lat": 36.877441
        }
    },
    {
        "id": 2465027,
        "name": "Gouvernorat de Siliana",
        "state": "",
        "country": "TN",
        "coord": {
            "lon": 9.33333,
            "lat": 36.0
        }
    },
    {
        "id": 2465030,
        "name": "Siliana",
        "state": "",
        "country": "TN",
        "coord": {
            "lon": 9.37082,
            "lat": 36.084969
        }
    },
    {
        "id": 2465108,
        "name": "Sidi Amor Bou Hajela",
        "state": "",
        "country": "TN",
        "coord": {
            "lon": 10.0477,
            "lat": 35.397419
        }
    },
    {
        "id": 2465138,
        "name": "Sidi Alouane",
        "state": "",
        "country": "TN",
        "coord": {
            "lon": 10.93899,
            "lat": 35.37505
        }
    },
    {
        "id": 2465837,
        "name": "Gouvernorat de Sidi Bouzid",
        "state": "",
        "country": "TN",
        "coord": {
            "lon": 9.5,
            "lat": 34.833328
        }
    },
    {
        "id": 2465840,
        "name": "Sidi Bouzid",
        "state": "",
        "country": "TN",
        "coord": {
            "lon": 9.48494,
            "lat": 35.038231
        }
    },
    {
        "id": 2466034,
        "name": "Sidi Bou Ali",
        "state": "",
        "country": "TN",
        "coord": {
            "lon": 10.47306,
            "lat": 35.956669
        }
    },
    {
        "id": 2466075,
        "name": "Sidi Ben Nour",
        "state": "",
        "country": "TN",
        "coord": {
            "lon": 10.91667,
            "lat": 35.533329
        }
    },
    {
        "id": 2466499,
        "name": "Sidi el Hani",
        "state": "",
        "country": "TN",
        "coord": {
            "lon": 10.31583,
            "lat": 35.671391
        }
    },
    {
        "id": 2466688,
        "name": "Sidi Bou Saïd",
        "state": "",
        "country": "TN",
        "coord": {
            "lon": 10.34174,
            "lat": 36.868698
        }
    },
    {
        "id": 2466698,
        "name": "Sidi Abid",
        "state": "",
        "country": "TN",
        "coord": {
            "lon": 10.69585,
            "lat": 34.699829
        }
    },
    {
        "id": 2466897,
        "name": "Chorbane",
        "state": "",
        "country": "TN",
        "coord": {
            "lon": 10.3858,
            "lat": 35.285809
        }
    },
    {
        "id": 2467041,
        "name": "Chenini",
        "state": "",
        "country": "TN",
        "coord": {
            "lon": 10.26194,
            "lat": 32.911758
        }
    },
    {
        "id": 2467077,
        "name": "Chebika",
        "state": "",
        "country": "TN",
        "coord": {
            "lon": 7.93519,
            "lat": 34.319092
        }
    },
    {
        "id": 2467239,
        "name": "Sakiet Sidi Youssef",
        "state": "",
        "country": "TN",
        "coord": {
            "lon": 8.35547,
            "lat": 36.222919
        }
    },
    {
        "id": 2467246,
        "name": "Skanes",
        "state": "",
        "country": "TN",
        "coord": {
            "lon": 10.8,
            "lat": 35.783329
        }
    },
    {
        "id": 2467368,
        "name": "Sejenane",
        "state": "",
        "country": "TN",
        "coord": {
            "lon": 9.23806,
            "lat": 37.05722
        }
    },
    {
        "id": 2467450,
        "name": "Gouvernorat de Sfax",
        "state": "",
        "country": "TN",
        "coord": {
            "lon": 10.41667,
            "lat": 34.75
        }
    },
    {
        "id": 2467454,
        "name": "Sfax",
        "state": "",
        "country": "TN",
        "coord": {
            "lon": 10.76028,
            "lat": 34.740559
        }
    },
    {
        "id": 2467506,
        "name": "Sbiba",
        "state": "",
        "country": "TN",
        "coord": {
            "lon": 9.0737,
            "lat": 35.54332
        }
    },
    {
        "id": 2467521,
        "name": "La Sebala du Mornag",
        "state": "",
        "country": "TN",
        "coord": {
            "lon": 10.29195,
            "lat": 36.67931
        }
    },
    {
        "id": 2467783,
        "name": "Remada",
        "state": "",
        "country": "TN",
        "coord": {
            "lon": 10.39551,
            "lat": 32.31662
        }
    },
    {
        "id": 2467813,
        "name": "Rafrāf",
        "state": "",
        "country": "TN",
        "coord": {
            "lon": 10.18365,
            "lat": 37.19043
        }
    },
    {
        "id": 2467815,
        "name": "Radès",
        "state": "",
        "country": "TN",
        "coord": {
            "lon": 10.27528,
            "lat": 36.768059
        }
    },
    {
        "id": 2467856,
        "name": "Ksour Essaf",
        "state": "",
        "country": "TN",
        "coord": {
            "lon": 10.99475,
            "lat": 35.418079
        }
    },
    {
        "id": 2467890,
        "name": "Ksibet el Mediouni",
        "state": "",
        "country": "TN",
        "coord": {
            "lon": 10.84256,
            "lat": 35.685619
        }
    },
    {
        "id": 2467914,
        "name": "Korbous",
        "state": "",
        "country": "TN",
        "coord": {
            "lon": 10.56865,
            "lat": 36.816681
        }
    },
    {
        "id": 2467920,
        "name": "Korba",
        "state": "",
        "country": "TN",
        "coord": {
            "lon": 10.85861,
            "lat": 36.578609
        }
    },
    {
        "id": 2467959,
        "name": "Kélibia",
        "state": "",
        "country": "TN",
        "coord": {
            "lon": 11.09386,
            "lat": 36.847569
        }
    },
    {
        "id": 2467980,
        "name": "Goubellat",
        "state": "",
        "country": "TN",
        "coord": {
            "lon": 9.66334,
            "lat": 36.541779
        }
    },
    {
        "id": 2468014,
        "name": "Gouvernorat de Kébili",
        "state": "",
        "country": "TN",
        "coord": {
            "lon": 8.83333,
            "lat": 33.5
        }
    },
    {
        "id": 2468018,
        "name": "Kebili",
        "state": "",
        "country": "TN",
        "coord": {
            "lon": 8.96903,
            "lat": 33.704391
        }
    },
    {
        "id": 2468106,
        "name": "Ksar Hellal",
        "state": "",
        "country": "TN",
        "coord": {
            "lon": 10.89046,
            "lat": 35.647732
        }
    },
    {
        "id": 2468245,
        "name": "Carthage",
        "state": "",
        "country": "TN",
        "coord": {
            "lon": 10.33161,
            "lat": 36.86108
        }
    },
    {
        "id": 2468285,
        "name": "El Fahs",
        "state": "",
        "country": "TN",
        "coord": {
            "lon": 9.90651,
            "lat": 36.374191
        }
    },
    {
        "id": 2468329,
        "name": "Galaat el Andeless",
        "state": "",
        "country": "TN",
        "coord": {
            "lon": 10.11829,
            "lat": 37.062901
        }
    },
    {
        "id": 2468349,
        "name": "Gafour",
        "state": "",
        "country": "TN",
        "coord": {
            "lon": 9.32424,
            "lat": 36.32045
        }
    },
    {
        "id": 2468351,
        "name": "Gafsa Governorate",
        "state": "",
        "country": "TN",
        "coord": {
            "lon": 9.0,
            "lat": 34.5
        }
    },
    {
        "id": 2468353,
        "name": "Gafsa",
        "state": "",
        "country": "TN",
        "coord": {
            "lon": 8.78417,
            "lat": 34.424999
        }
    },
    {
        "id": 2468365,
        "name": "Gouvernorat de Gabès",
        "state": "",
        "country": "TN",
        "coord": {
            "lon": 9.75,
            "lat": 33.833328
        }
    },
    {
        "id": 2468369,
        "name": "Gabès",
        "state": "",
        "country": "TN",
        "coord": {
            "lon": 10.0982,
            "lat": 33.881458
        }
    },
    {
        "id": 2468459,
        "name": "Nibbar",
        "state": "",
        "country": "TN",
        "coord": {
            "lon": 8.76657,
            "lat": 36.294109
        }
    },
    {
        "id": 2468561,
        "name": "Nefta",
        "state": "",
        "country": "TN",
        "coord": {
            "lon": 7.87765,
            "lat": 33.873089
        }
    },
    {
        "id": 2468576,
        "name": "Gouvernorat de Nabeul",
        "state": "",
        "country": "TN",
        "coord": {
            "lon": 10.66667,
            "lat": 36.666672
        }
    },
    {
        "id": 2468579,
        "name": "Nabeul",
        "state": "",
        "country": "TN",
        "coord": {
            "lon": 10.73763,
            "lat": 36.456059
        }
    },
    {
        "id": 2468625,
        "name": "Mutuelleville",
        "state": "",
        "country": "TN",
        "coord": {
            "lon": 10.16472,
            "lat": 36.834999
        }
    },
    {
        "id": 2468925,
        "name": "Midoun",
        "state": "",
        "country": "TN",
        "coord": {
            "lon": 10.99228,
            "lat": 33.808128
        }
    },
    {
        "id": 2469088,
        "name": "Mateur",
        "state": "",
        "country": "TN",
        "coord": {
            "lon": 9.66557,
            "lat": 37.040451
        }
    },
    {
        "id": 2469140,
        "name": "Msaken",
        "state": "",
        "country": "TN",
        "coord": {
            "lon": 10.58082,
            "lat": 35.729172
        }
    },
    {
        "id": 2469174,
        "name": "Mareth",
        "state": "",
        "country": "TN",
        "coord": {
            "lon": 10.28536,
            "lat": 33.617939
        }
    },
    {
        "id": 2469252,
        "name": "Menzel Salem",
        "state": "",
        "country": "TN",
        "coord": {
            "lon": 8.47654,
            "lat": 35.856731
        }
    },
    {
        "id": 2469255,
        "name": "Menzel Kamel",
        "state": "",
        "country": "TN",
        "coord": {
            "lon": 10.66727,
            "lat": 35.624771
        }
    },
    {
        "id": 2469256,
        "name": "Menzel Jemil",
        "state": "",
        "country": "TN",
        "coord": {
            "lon": 9.91448,
            "lat": 37.236179
        }
    },
    {
        "id": 2469258,
        "name": "Menzel Heurr",
        "state": "",
        "country": "TN",
        "coord": {
            "lon": 10.95756,
            "lat": 36.72818
        }
    },
    {
        "id": 2469262,
        "name": "Mennzel Bou Zelfa",
        "state": "",
        "country": "TN",
        "coord": {
            "lon": 10.58431,
            "lat": 36.683121
        }
    },
    {
        "id": 2469264,
        "name": "Menzel Bourguiba",
        "state": "",
        "country": "TN",
        "coord": {
            "lon": 9.78594,
            "lat": 37.153679
        }
    },
    {
        "id": 2469268,
        "name": "Menzel Abderhaman",
        "state": "",
        "country": "TN",
        "coord": {
            "lon": 9.86313,
            "lat": 37.23737
        }
    },
    {
        "id": 2469274,
        "name": "Manouba",
        "state": "",
        "country": "TN",
        "coord": {
            "lon": 10.0972,
            "lat": 36.808029
        }
    },
    {
        "id": 2469321,
        "name": "Melloulèche",
        "state": "",
        "country": "TN",
        "coord": {
            "lon": 11.03504,
            "lat": 35.166168
        }
    },
    {
        "id": 2469329,
        "name": "Mellita",
        "state": "",
        "country": "TN",
        "coord": {
            "lon": 10.80154,
            "lat": 33.863178
        }
    },
    {
        "id": 2469341,
        "name": "Maktar",
        "state": "",
        "country": "TN",
        "coord": {
            "lon": 9.20072,
            "lat": 35.857979
        }
    },
    {
        "id": 2469386,
        "name": "Medjez el Bab",
        "state": "",
        "country": "TN",
        "coord": {
            "lon": 9.61231,
            "lat": 36.649639
        }
    },
    {
        "id": 2469470,
        "name": "Gouvernorat de Médenine",
        "state": "",
        "country": "TN",
        "coord": {
            "lon": 11.0,
            "lat": 33.333328
        }
    },
    {
        "id": 2469473,
        "name": "Medenine",
        "state": "",
        "country": "TN",
        "coord": {
            "lon": 10.50548,
            "lat": 33.35495
        }
    },
    {
        "id": 2469571,
        "name": "Lemta",
        "state": "",
        "country": "TN",
        "coord": {
            "lon": 10.88333,
            "lat": 35.666672
        }
    },
    {
        "id": 2469744,
        "name": "Kesra",
        "state": "",
        "country": "TN",
        "coord": {
            "lon": 9.36434,
            "lat": 35.813641
        }
    },
    {
        "id": 2470085,
        "name": "Gouvernorat de Jendouba",
        "state": "",
        "country": "TN",
        "coord": {
            "lon": 8.75,
            "lat": 36.666672
        }
    },
    {
        "id": 2470088,
        "name": "Jendouba",
        "state": "",
        "country": "TN",
        "coord": {
            "lon": 8.78024,
            "lat": 36.501141
        }
    },
    {
        "id": 2470120,
        "name": "Jilma",
        "state": "",
        "country": "TN",
        "coord": {
            "lon": 9.42385,
            "lat": 35.273109
        }
    },
    {
        "id": 2470173,
        "name": "Zarzis",
        "state": "",
        "country": "TN",
        "coord": {
            "lon": 11.11216,
            "lat": 33.503979
        }
    },
    {
        "id": 2470189,
        "name": "Jemna",
        "state": "",
        "country": "TN",
        "coord": {
            "lon": 9.01472,
            "lat": 33.577782
        }
    },
    {
        "id": 2470191,
        "name": "Djemmal",
        "state": "",
        "country": "TN",
        "coord": {
            "lon": 10.75696,
            "lat": 35.622311
        }
    },
    {
        "id": 2470260,
        "name": "Djebeniana",
        "state": "",
        "country": "TN",
        "coord": {
            "lon": 10.90809,
            "lat": 35.035
        }
    },
    {
        "id": 2470384,
        "name": "Houmt El Souk",
        "state": "",
        "country": "TN",
        "coord": {
            "lon": 10.85745,
            "lat": 33.875759
        }
    },
    {
        "id": 2470483,
        "name": "Harqalah",
        "state": "",
        "country": "TN",
        "coord": {
            "lon": 10.50904,
            "lat": 36.03027
        }
    },
    {
        "id": 2470579,
        "name": "Hammam Sousse",
        "state": "",
        "country": "TN",
        "coord": {
            "lon": 10.60313,
            "lat": 35.860901
        }
    },
    {
        "id": 2470588,
        "name": "Hammam-Lif",
        "state": "",
        "country": "TN",
        "coord": {
            "lon": 10.34163,
            "lat": 36.728661
        }
    },
    {
        "id": 2470656,
        "name": "La Goulette",
        "state": "",
        "country": "TN",
        "coord": {
            "lon": 10.305,
            "lat": 36.818062
        }
    },
    {
        "id": 2470800,
        "name": "Haffouz",
        "state": "",
        "country": "TN",
        "coord": {
            "lon": 9.67624,
            "lat": 35.632351
        }
    },
    {
        "id": 2470996,
        "name": "Rhar el Melah",
        "state": "",
        "country": "TN",
        "coord": {
            "lon": 10.19064,
            "lat": 37.169392
        }
    },
    {
        "id": 2471287,
        "name": "Douz",
        "state": "",
        "country": "TN",
        "coord": {
            "lon": 9.0203,
            "lat": 33.46632
        }
    },
    {
        "id": 2471454,
        "name": "Degache",
        "state": "",
        "country": "TN",
        "coord": {
            "lon": 8.2081,
            "lat": 33.976059
        }
    },
    {
        "id": 2471475,
        "name": "Douar Tindja",
        "state": "",
        "country": "TN",
        "coord": {
            "lon": 9.75,
            "lat": 37.166672
        }
    },
    {
        "id": 2471634,
        "name": "Dar Sidi M’hamed ech Cherif",
        "state": "",
        "country": "TN",
        "coord": {
            "lon": 10.31806,
            "lat": 36.888329
        }
    },
    {
        "id": 2471637,
        "name": "Dar Chabanne",
        "state": "",
        "country": "TN",
        "coord": {
            "lon": 10.75167,
            "lat": 36.467979
        }
    },
    {
        "id": 2471915,
        "name": "Bou Arkoub",
        "state": "",
        "country": "TN",
        "coord": {
            "lon": 10.55093,
            "lat": 36.538528
        }
    },
    {
        "id": 2472261,
        "name": "Bou Arada",
        "state": "",
        "country": "TN",
        "coord": {
            "lon": 9.62175,
            "lat": 36.352509
        }
    },
    {
        "id": 2472379,
        "name": "Bir Ali Ben Khalifa",
        "state": "",
        "country": "TN",
        "coord": {
            "lon": 10.0924,
            "lat": 34.73592
        }
    },
    {
        "id": 2472380,
        "name": "Bir el Hafey",
        "state": "",
        "country": "TN",
        "coord": {
            "lon": 9.19321,
            "lat": 34.932121
        }
    },
    {
        "id": 2472431,
        "name": "Ben Gardane",
        "state": "",
        "country": "TN",
        "coord": {
            "lon": 11.21965,
            "lat": 33.137829
        }
    },
    {
        "id": 2472479,
        "name": "Ben Arous",
        "state": "",
        "country": "TN",
        "coord": {
            "lon": 10.21889,
            "lat": 36.753059
        }
    },
    {
        "id": 2472675,
        "name": "Le Bardo",
        "state": "",
        "country": "TN",
        "coord": {
            "lon": 10.14056,
            "lat": 36.80917
        }
    },
    {
        "id": 2472699,
        "name": "Gouvernorat de Bizerte",
        "state": "",
        "country": "TN",
        "coord": {
            "lon": 9.58333,
            "lat": 37.083328
        }
    },
    {
        "id": 2472706,
        "name": "Bizerte",
        "state": "",
        "country": "TN",
        "coord": {
            "lon": 9.87391,
            "lat": 37.274422
        }
    },
    {
        "id": 2472722,
        "name": "Beni Khiar",
        "state": "",
        "country": "TN",
        "coord": {
            "lon": 10.78222,
            "lat": 36.46917
        }
    },
    {
        "id": 2472724,
        "name": "Beni Khalled",
        "state": "",
        "country": "TN",
        "coord": {
            "lon": 10.59004,
            "lat": 36.650379
        }
    },
    {
        "id": 2472726,
        "name": "Beni Kheddache",
        "state": "",
        "country": "TN",
        "coord": {
            "lon": 10.19883,
            "lat": 33.2528
        }
    },
    {
        "id": 2472732,
        "name": "Beni Hassane",
        "state": "",
        "country": "TN",
        "coord": {
            "lon": 10.80869,
            "lat": 35.5672
        }
    },
    {
        "id": 2472744,
        "name": "Banbalah",
        "state": "",
        "country": "TN",
        "coord": {
            "lon": 10.8,
            "lat": 35.700001
        }
    },
    {
        "id": 2472770,
        "name": "Gouvernorat de Béja",
        "state": "",
        "country": "TN",
        "coord": {
            "lon": 9.25,
            "lat": 36.666672
        }
    },
    {
        "id": 2472774,
        "name": "Béja",
        "state": "",
        "country": "TN",
        "coord": {
            "lon": 9.18169,
            "lat": 36.725639
        }
    },
    {
        "id": 2472818,
        "name": "Bab El Jazira",
        "state": "",
        "country": "TN",
        "coord": {
            "lon": 10.18333,
            "lat": 36.799999
        }
    },
    {
        "id": 2472833,
        "name": "Zouila",
        "state": "",
        "country": "TN",
        "coord": {
            "lon": 11.06056,
            "lat": 35.500561
        }
    },
    {
        "id": 2473161,
        "name": "Skhira",
        "state": "",
        "country": "TN",
        "coord": {
            "lon": 10.06999,
            "lat": 34.299198
        }
    },
    {
        "id": 2473163,
        "name": "Sbikha",
        "state": "",
        "country": "TN",
        "coord": {
            "lon": 10.02081,
            "lat": 35.93325
        }
    },
    {
        "id": 2473169,
        "name": "Seïada",
        "state": "",
        "country": "TN",
        "coord": {
            "lon": 10.89246,
            "lat": 35.668869
        }
    },
    {
        "id": 2473177,
        "name": "As Sars",
        "state": "",
        "country": "TN",
        "coord": {
            "lon": 9.02118,
            "lat": 36.076401
        }
    },
    {
        "id": 2473183,
        "name": "As Sanad",
        "state": "",
        "country": "TN",
        "coord": {
            "lon": 9.26404,
            "lat": 34.462799
        }
    },
    {
        "id": 2473190,
        "name": "Sahline",
        "state": "",
        "country": "TN",
        "coord": {
            "lon": 10.71109,
            "lat": 35.751659
        }
    },
    {
        "id": 2473229,
        "name": "Chebba",
        "state": "",
        "country": "TN",
        "coord": {
            "lon": 11.115,
            "lat": 35.237221
        }
    },
    {
        "id": 2473245,
        "name": "Gouvernorat de l’Ariana",
        "state": "",
        "country": "TN",
        "coord": {
            "lon": 10.11667,
            "lat": 36.98333
        }
    },
    {
        "id": 2473247,
        "name": "Ariana",
        "state": "",
        "country": "TN",
        "coord": {
            "lon": 10.19337,
            "lat": 36.860119
        }
    },
    {
        "id": 2473257,
        "name": "Ar Rudayyif",
        "state": "",
        "country": "TN",
        "coord": {
            "lon": 8.15549,
            "lat": 34.382702
        }
    },
    {
        "id": 2473258,
        "name": "Er Regueb",
        "state": "",
        "country": "TN",
        "coord": {
            "lon": 9.78654,
            "lat": 34.859322
        }
    },
    {
        "id": 2473264,
        "name": "Rohia",
        "state": "",
        "country": "TN",
        "coord": {
            "lon": 9.05306,
            "lat": 35.651291
        }
    },
    {
        "id": 2473358,
        "name": "Enfidha",
        "state": "",
        "country": "TN",
        "coord": {
            "lon": 10.38083,
            "lat": 36.135281
        }
    },
    {
        "id": 2473420,
        "name": "Ouardenine",
        "state": "",
        "country": "TN",
        "coord": {
            "lon": 10.67397,
            "lat": 35.709148
        }
    },
    {
        "id": 2473427,
        "name": "El Aouina",
        "state": "",
        "country": "TN",
        "coord": {
            "lon": 10.25639,
            "lat": 36.848061
        }
    },
    {
        "id": 2473439,
        "name": "El Ksour",
        "state": "",
        "country": "TN",
        "coord": {
            "lon": 8.88493,
            "lat": 35.896069
        }
    },
    {
        "id": 2473448,
        "name": "El Guithna",
        "state": "",
        "country": "TN",
        "coord": {
            "lon": 8.12663,
            "lat": 33.925388
        }
    },
    {
        "id": 2473449,
        "name": "Kairouan",
        "state": "",
        "country": "TN",
        "coord": {
            "lon": 10.09633,
            "lat": 35.678101
        }
    },
    {
        "id": 2473451,
        "name": "Gouvernorat de Kairouan",
        "state": "",
        "country": "TN",
        "coord": {
            "lon": 9.83333,
            "lat": 35.583328
        }
    },
    {
        "id": 2473457,
        "name": "Kasserine",
        "state": "",
        "country": "TN",
        "coord": {
            "lon": 8.83651,
            "lat": 35.16758
        }
    },
    {
        "id": 2473460,
        "name": "Gouvernorat de Kasserine",
        "state": "",
        "country": "TN",
        "coord": {
            "lon": 8.78333,
            "lat": 35.25
        }
    },
    {
        "id": 2473466,
        "name": "El Ksar",
        "state": "",
        "country": "TN",
        "coord": {
            "lon": 8.80399,
            "lat": 34.3992
        }
    },
    {
        "id": 2473470,
        "name": "Gremda",
        "state": "",
        "country": "TN",
        "coord": {
            "lon": 10.78333,
            "lat": 34.75
        }
    },
    {
        "id": 2473486,
        "name": "El Golaa",
        "state": "",
        "country": "TN",
        "coord": {
            "lon": 9.00678,
            "lat": 33.484852
        }
    },
    {
        "id": 2473493,
        "name": "Monastir",
        "state": "",
        "country": "TN",
        "coord": {
            "lon": 10.83333,
            "lat": 35.783329
        }
    },
    {
        "id": 2473495,
        "name": "Gouvernorat de Monastir",
        "state": "",
        "country": "TN",
        "coord": {
            "lon": 10.75,
            "lat": 35.616669
        }
    },
    {
        "id": 2473499,
        "name": "La Mohammedia",
        "state": "",
        "country": "TN",
        "coord": {
            "lon": 10.15633,
            "lat": 36.674461
        }
    },
    {
        "id": 2473514,
        "name": "El Mida",
        "state": "",
        "country": "TN",
        "coord": {
            "lon": 10.85528,
            "lat": 36.725559
        }
    },
    {
        "id": 2473517,
        "name": "Metlaoui",
        "state": "",
        "country": "TN",
        "coord": {
            "lon": 8.40158,
            "lat": 34.320808
        }
    },
    {
        "id": 2473525,
        "name": "Mezzouna",
        "state": "",
        "country": "TN",
        "coord": {
            "lon": 9.84193,
            "lat": 34.577579
        }
    },
    {
        "id": 2473533,
        "name": "Al Matlīn",
        "state": "",
        "country": "TN",
        "coord": {
            "lon": 10.05,
            "lat": 37.245159
        }
    },
    {
        "id": 2473537,
        "name": "Mesdour",
        "state": "",
        "country": "TN",
        "coord": {
            "lon": 10.72746,
            "lat": 35.68206
        }
    },
    {
        "id": 2473540,
        "name": "Al Marsá",
        "state": "",
        "country": "TN",
        "coord": {
            "lon": 10.32466,
            "lat": 36.878181
        }
    },
    {
        "id": 2473558,
        "name": "El Maamoura",
        "state": "",
        "country": "TN",
        "coord": {
            "lon": 10.80612,
            "lat": 36.464989
        }
    },
    {
        "id": 2473569,
        "name": "El Mây",
        "state": "",
        "country": "TN",
        "coord": {
            "lon": 10.88383,
            "lat": 33.801189
        }
    },
    {
        "id": 2473572,
        "name": "Mahdia",
        "state": "",
        "country": "TN",
        "coord": {
            "lon": 11.06222,
            "lat": 35.504719
        }
    },
    {
        "id": 2473574,
        "name": "Gouvernorat de Mahdia",
        "state": "",
        "country": "TN",
        "coord": {
            "lon": 10.58333,
            "lat": 35.333328
        }
    },
    {
        "id": 2473626,
        "name": "Le Kram",
        "state": "",
        "country": "TN",
        "coord": {
            "lon": 10.31667,
            "lat": 36.833328
        }
    },
    {
        "id": 2473628,
        "name": "Le Krib",
        "state": "",
        "country": "TN",
        "coord": {
            "lon": 9.13613,
            "lat": 36.328018
        }
    },
    {
        "id": 2473634,
        "name": "El Kef",
        "state": "",
        "country": "TN",
        "coord": {
            "lon": 8.70486,
            "lat": 36.17424
        }
    },
    {
        "id": 2473637,
        "name": "Gouvernorat de Kef",
        "state": "",
        "country": "TN",
        "coord": {
            "lon": 8.75,
            "lat": 36.083328
        }
    },
    {
        "id": 2473654,
        "name": "El Jem",
        "state": "",
        "country": "TN",
        "coord": {
            "lon": 10.71667,
            "lat": 35.299999
        }
    },
    {
        "id": 2473716,
        "name": "El Haouaria",
        "state": "",
        "country": "TN",
        "coord": {
            "lon": 11.01442,
            "lat": 37.050018
        }
    },
    {
        "id": 2473744,
        "name": "Hammamet",
        "state": "",
        "country": "TN",
        "coord": {
            "lon": 10.61667,
            "lat": 36.400002
        }
    },
    {
        "id": 2473747,
        "name": "El Hamma",
        "state": "",
        "country": "TN",
        "coord": {
            "lon": 9.79629,
            "lat": 33.891521
        }
    },
    {
        "id": 2473788,
        "name": "Fernana",
        "state": "",
        "country": "TN",
        "coord": {
            "lon": 8.69602,
            "lat": 36.655472
        }
    },
    {
        "id": 2473803,
        "name": "El Borma",
        "state": "",
        "country": "TN",
        "coord": {
            "lon": 9.2062,
            "lat": 31.691719
        }
    },
    {
        "id": 2473823,
        "name": "El Battan",
        "state": "",
        "country": "TN",
        "coord": {
            "lon": 9.84424,
            "lat": 36.80368
        }
    },
    {
        "id": 2473826,
        "name": "Bekalta",
        "state": "",
        "country": "TN",
        "coord": {
            "lon": 10.99466,
            "lat": 35.61739
        }
    },
    {
        "id": 2473876,
        "name": "El Alia",
        "state": "",
        "country": "TN",
        "coord": {
            "lon": 10.03478,
            "lat": 37.169102
        }
    },
    {
        "id": 2473913,
        "name": "Akouda",
        "state": "",
        "country": "TN",
        "coord": {
            "lon": 10.5653,
            "lat": 35.869099
        }
    }
]